{
  "title": "Lisbon, in Spring",
  "eyebrow": "Saved chapter · sample",
  "narrative": "We came for the pastéis and stayed for the light. Somewhere between the tram bells and the tiled hills, four days became the kind of memory a family retells for decades.",
  "locations": [
    { "name": "Lisbon, Portugal", "lat": 38.7223, "lng": -9.1393 },
    { "name": "Cabo da Roca, Portugal", "lat": 38.7805, "lng": -9.4989 },
    { "name": "Sintra, Portugal", "lat": 38.7989, "lng": -9.3883 }
  ],
  "userPins": [
    { "id": "pin_demo1", "lat": 38.7267, "lng": -9.1356, "name": "Time Out Market", "note": "Best bifana of the whole trip.", "icon": "🍴" },
    { "id": "pin_demo2", "lat": 38.7139, "lng": -9.1394, "name": "Miradouro de Santa Luzia", "note": "Sunset over the rooftops.", "icon": "📷" },
    { "id": "pin_demo3", "lat": 38.7975, "lng": -9.3904, "name": "Quinta da Regaleira", "note": "The spiral well in Sintra.", "icon": "🏛️" }
  ],
  "slides": [
    { "demo": "🌅", "bg": "linear-gradient(135deg,#E8985E,#C4713A)", "caption": "First morning over the Alfama rooftops.", "why": "Chosen as the opening — it sets the light the whole trip lived in." },
    { "demo": "🚋", "bg": "linear-gradient(135deg,#5E8C7B,#2D4A3E)", "caption": "Tram 28, exactly as crowded as promised.", "why": "A standalone moment — the most retold story of the trip deserves its own slide." },
    { "collage": [
        { "demo": "🏛️", "bg": "linear-gradient(135deg,#7A8C9E,#3D5B6E)" },
        { "demo": "🎨", "bg": "linear-gradient(135deg,#C98B6A,#9E5B3A)" }
      ], "caption": "A morning wandering the tiled hills.", "why": "Two views of the same neighborhood — stronger together than apart." },
    { "demo": "🥮", "bg": "linear-gradient(135deg,#D9B36A,#B8953F)", "caption": "Six pastéis de nata. None survived.", "why": "Food photos carry memory — this one had everyone's hands in frame." },
    { "demo": "🌊", "bg": "linear-gradient(135deg,#6A93A8,#3D5B6E)", "caption": "Cabo da Roca — the edge of the continent.", "why": "The only photo where everyone is looking at the same horizon." },
    { "demo": "🌙", "bg": "linear-gradient(135deg,#4A4070,#2C2645)", "caption": "Last night, fado drifting up the street.", "why": "A closing image — quieter than the rest, the way trips actually end." }
  ]
}
